loggingTime(txt),accelerometerTimestamp_sinceReboot(s),accelerometerAccelerationX(G),accelerometerAccelerationY(G),accelerometerAccelerationZ(G),motionTimestamp_sinceReboot(s),motionYaw(rad),motionRoll(rad),motionPitch(rad),motionRotationRateX(rad/s),motionRotationRateY(rad/s),motionRotationRateZ(rad/s),motionUserAccelerationX(G),motionUserAccelerationY(G),motionUserAccelerationZ(G),motionAttitudeReferenceFrame(txt),motionQuaternionX(R),motionQuaternionY(R),motionQuaternionZ(R),motionQuaternionW(R),motionGravityX(G),motionGravityY(G),motionGravityZ(G),altimeterTimestamp_sinceReboot(s),altimeterReset(bool),altimeterRelativeAltitude(m),altimeterPressure(kPa)
2020-03-01 09:46:53.846 +0100,17689.327435125,0.0472869873046875,-0.211029052734375,-0.980133056640625,17689.322411125,1.845156490217741,0.02117940514379225,0.2224587066813446,-0.03500767052173615,0.03595815971493721,0.07578107714653015,-0.01431049406528473,-0.03378830850124359,0.004677534103393555,XArbitraryZVertical,0.05862507767226594,0.09483409804774967,0.7929000497074952,0.5990651722305003,0.02065595611929893,-0.220628410577774,-0.9751392006874084,604745211.4955096,0,-9.27,99.09587
2020-03-01 09:46:53.860 +0100,17689.347531125,0.0291290283203125,-0.2140350341796875,-0.9738311767578125,17689.342507125,1.845312049389332,0.02107971285896298,0.2227074218184745,0.04350671172142029,-0.03415835648775101,-0.01541810482740402,0.03415824472904205,0.04099354147911072,-0.004393219947814941,XArbitraryZVertical,0.05873194990103099,0.09490722891805536,0.7929334997499025,0.5989988740178254,0.02055758610367775,-0.2208709865808487,-0.9750863313674927,604745211.4955096,0,-9.27,99.09587
2020-03-01 09:46:53.862 +0100,17689.367626125,0.0243072509765625,-0.2160797119140625,-0.97552490234375,17689.362602125,1.84498417199048,0.02067237982299116,0.2237899786391972,0.05931280180811882,-0.018806092441082,-0.03533988073468208,-0.009094966575503349,-0.0022011399269104,-0.001054048538208008,XArbitraryZVertical,0.05923427098746883,0.09520394028321089,0.7927786182637475,0.5991074065039127,0.02015544474124908,-0.221926674246788,-0.9748550057411194,604745211.4955096,0,-9.27,99.09587
2020-03-01 09:46:53.876 +0100,17689.387722125,0.0161895751953125,-0.2352447509765625,-0.9730682373046875,17689.382698125,1.844647680786053,0.02027861675927275,0.224947403541403,0.05288293957710266,-0.02776162140071392,0.009546167217195034,0.008582362905144691,-0.002659469842910767,0.0001459121704101562,XArbitraryZVertical,0.05975418212394671,0.09553391692532356,0.7926180087133794,0.5992156746523312,0.01976635865867138,-0.2230550944805145,-0.9746054410934448,604745211.4955096,0,-9.27,99.09587
2020-03-01 09:46:53.897 +0100,17689.407817125,0.01666259765625,-0.2242889404296875,-0.972381591796875,17689.402793125,1.845161772566605,0.01996871841915206,0.2260610438839352,0.03882565349340439,0.004465719684958458,0.01511280611157417,-0.01328162290155888,-0.009081229567527771,0.005625069141387939,XArbitraryZVertical,0.06018699848142378,0.09589711079217456,0.7927161437867385,0.5989845129282348,0.01945935748517513,-0.224140539765358,-0.9743625521659851,604745211.4955096,0,-9.27,99.09587
2020-03-01 09:46:53.916 +0100,17689.427912125,0.0223541259765625,-0.2258148193359375,-0.9771728515625,17689.422889125,1.844942036719019,0.01992133098407021,0.2268875206041695,0.051676906645298,-0.01605116948485374,-0.01864106208086014,0.01122809015214443,0.007318705320358276,-0.0009835362434387207,XArbitraryZVertical,0.06046461096837091,0.09620328366323119,0.7926141602361866,0.5990424532742744,0.01940948888659477,-0.2249459028244019,-0.9741778969764709,604745211.4955096,0,-9.27,99.09587
2020-03-01 09:46:53.939 +0100,17689.448008125,0.0139312744140625,-0.2299041748046875,-0.9730224609375,17689.442984125,1.844329585282983,0.01985907280398366,0.2279519192361384,0.06024990975856781,-0.0004708338528871536,-0.03060514852404594,-0.006284618750214577,-0.003423914313316345,0.003691017627716064,XArbitraryZVertical,0.06083861948369074,0.09658711002450308,0.7923838377524063,0.5992474036701713,0.01934407278895378,-0.2259829044342041,-0.9739391803741455,604745211.4955096,0,-9.27,99.09587
2020-03-01 09:46:53.956 +0100,17689.468103125,0.02410888671875,-0.2226104736328125,-0.9712371826171875,17689.463079125,1.843826905636937,0.02002846273934089,0.2288605968973892,0.02502250857651234,-0.0005729664117097855,-0.02210397087037563,0.0009702853858470917,-0.002706542611122131,-0.00159919261932373,XArbitraryZVertical,0.06106896320384438,0.09698188788940254,0.7921998414072086,0.5994035351810669,0.01950492709875107,-0.2268679738044739,-0.973730206489563,604745211.4955096,0,-9.27,99.09587
2020-03-01 09:46:53.977 +0100,17689.488199125,0.0196380615234375,-0.22918701171875,-0.9755859375,17689.483175125,1.843636976110056,0.02001563150840558,0.2293086554053837,0.02461723238229752,0.001547842286527157,0.005908455699682236,0.003060011193156242,0.001437738537788391,-0.0007240772247314453,XArbitraryZVertical,0.06121796288225766,0.09714938969812503,0.7921234763561634,0.5994621681706966,0.01949039660394192,-0.2273043245077133,-0.9736286997795105,604745211.4955096,0,-9.27,99.09587
2020-03-01 09:46:53.997 +0100,17689.508294125,0.0176849365234375,-0.230987548828125,-0.97174072265625,17689.503270125,1.844074873756405,0.02006446486500017,0.2299919788937927,0.04138835519552231,0.01468309853225946,0.03915805369615555,-2.092309296131134e-05,-0.002794817090034485,0.002583146095275879,XArbitraryZVertical,0.06138272044525954,0.09744763013614979,0.7922270661451754,0.599259961610639,0.01953482069075108,-0.2279697209596634,-0.9734722375869751,604745211.4955096,0,-9.27,99.09587
2020-03-01 09:46:54.017 +0100,17689.528390125,0.022552490234375,-0.2218017578125,-0.973541259765625,17689.523366125,1.844889360486407,0.02023448406307583,0.2306235590006388,0.02129307389259338,0.0196739062666893,0.02889886125922203,-0.001800965517759323,-0.002286612987518311,0.01000398397445679,XArbitraryZVertical,0.06146537838260026,0.09777334979560147,0.7924492447816031,0.5989044983130939,0.0196974128484726,-0.2285846173763275,-0.9733247756958008,604745211.4955096,0,-9.27,99.09587
2020-03-01 09:46:54.037 +0100,17689.548485125,0.029144287109375,-0.211212158203125,-0.974090576171875,17689.543461125,1.84509289866633,0.02038465976575903,0.2311762772647779,0.02801437862217426,-0.003718218766152859,-0.002702376805245876,0.00576111301779747,0.01271684467792511,-0.005201160907745361,XArbitraryZVertical,0.06156192229070027,0.09804319296991329,0.7924911158752876,0.5987950477521383,0.01984100416302681,-0.229122668504715,-0.9731953144073486,604745211.4955096,0,-9.27,99.09587
2020-03-01 09:46:54.057 +0100,17689.568581125,0.01873779296875,-0.21881103515625,-0.9729156494140625,17689.563557125,1.844892100193509,0.02015142930463985,0.2317584094071826,0.03863293677568436,-0.0154323996976018,-0.003792675212025642,0.006555387750267982,0.01241369545459747,-0.002247750759124756,XArbitraryZVertical,0.06183902992189334,0.09819739177088406,0.792398799674614,0.5988635631933432,0.01961133442819118,-0.2296892702579498,-0.9730663895606995,604745211.4955096,0,-9.27,99.09587
2020-03-01 09:46:54.077 +0100,17689.588676125,0.02459716796875,-0.2253570556640625,-0.974578857421875,17689.583652125,1.845001460082386,0.01979688992622832,0.2325781903162141,0.05243712663650513,-0.01799604669213295,0.014384132809937,0.0006938185542821884,0.005856886506080627,0.002590656280517578,XArbitraryZVertical,0.06222033240254509,0.09841885685182736,0.792385153079105,0.5988056922274934,0.01926260814070702,-0.2304870635271072,-0.9728847146034241,604745214.0651097,0,-9.23,99.09539
2020-03-01 09:46:54.098 +0100,17689.608772125,0.019775390625,-0.241363525390625,-0.969268798828125,17689.603748125,1.845274522117297,0.01929903337180443,0.23396936095182,0.07937618345022202,-0.0242763739079237,0.01365955173969269,0.004297230392694473,-0.0001136958599090576,0.0002949237823486328,XArbitraryZVertical,0.06282184925665701,0.09882856607432099,0.7923908917986973,0.5986678237452833,0.01877204328775406,-0.2318405508995056,-0.9725726842880249,604745214.0651097,0,-9.23,99.09539
2020-03-01 09:46:54.117 +0100,17689.628867125,0.0103607177734375,-0.2431793212890625,-0.970672607421875,17689.623843125,1.845651692495886,0.0187720932207162,0.2350862744125758,0.03824057430028915,-0.01712930575013161,0.02880661375820637,-0.002112846821546555,-0.01335519552230835,0.005996048450469971,XArbitraryZVertical,0.06334723390661616,0.09912454364090141,0.7924382387016594,0.5985007199466104,0.01825468055903912,-0.2329268902540207,-0.9723228812217712,604745214.0651097,0,-9.23,99.09539
2020-03-01 09:46:54.138 +0100,17689.648962125,0.015350341796875,-0.2318115234375,-0.9711456298828125,17689.643939125,1.846526593934187,0.0185465436539546,0.2357895221473045,0.02314731851220131,0.005291475914418697,0.0454016700387001,-0.01064901798963547,-0.00376012921333313,-5.376338958740234e-05,XArbitraryZVertical,0.06360419691031918,0.099363051330848,0.7926618491284209,0.5981376871584569,0.01803233101963997,-0.2336107343435287,-0.9721629619598389,604745214.0651097,0,-9.23,99.09539
2020-03-01 09:46:54.158 +0100,17689.669058125,0.0152740478515625,-0.2246551513671875,-0.9702301025390625,17689.664034125,1.847524142314761,0.01849311270837021,0.2360988004524565,0.02261953987181187,0.01730569079518318,0.05425537750124931,-0.0002197567373514175,0.009022295475006104,0.003002941608428955,XArbitraryZVertical,0.06366851574164578,0.09950121353929595,0.7929447212676034,0.5977327959880723,0.01797905005514622,-0.2339114397764206,-0.9720916748046875,604745214.0651097,0,-9.23,99.09539
2020-03-01 09:46:54.178 +0100,17689.689153125,0.0243682861328125,-0.2300262451171875,-0.9704742431640625,17689.684130125,1.848296955689995,0.01871603614358104,0.2367688517329335,0.03578945621848106,0.01827142760157585,0.01930016092956066,0.00145854614675045,0.007644355297088623,-0.002208709716796875,XArbitraryZVertical,0.06374238927145985,0.09985768319911888,0.7931530590594965,0.5973889675309372,0.01819281466305256,-0.2345628589391708,-0.9719306826591492,604745214.0651097,0,-9.23,99.09539
2020-03-01 09:46:54.198 +0100,17689.709249125,0.019439697265625,-0.236083984375,-0.969085693359375,17689.704225125,1.848496680634877,0.01901127389826676,0.2373205410728539,0.01424838416278362,0.01799909025430679,-0.005823468323796988,0.00248628668487072,0.0004597306251525879,-0.003167629241943359,XArbitraryZVertical,0.06378057747959986,0.1001706412995193,0.7931976591830908,0.5972733601385457,0.01847730204463005,-0.235099121928215,-0.9717957377433777,604745214.0651097,0,-9.23,99.09539
2020-03-01 09:46:54.218 +0100,17689.729344125,0.01934814453125,-0.245269775390625,-0.9683074951171875,17689.724320125,1.848043866744766,0.01945260934162679,0.2371733893710607,-0.0274833869189024,0.01386470999568701,-0.03285674750804901,0.003689365461468697,-0.00442880392074585,-0.001996874809265137,XArbitraryZVertical,0.06358415949832656,0.1002297801828663,0.7930829987517624,0.5974366696544062,0.01890685968101025,-0.2349560856819153,-0.9718220829963684,604745214.0651097,0,-9.23,99.09539
2020-03-01 09:46:54.238 +0100,17689.749440125,-0.002532958984375,-0.2158660888671875,-0.9690093994140625,17689.744416125,1.847435634629407,0.01995032494564538,0.2360538689227035,-0.06911230087280273,0.03901135921478271,0.00743857491761446,-0.005008840933442116,-0.01061362028121948,0.00284886360168457,XArbitraryZVertical,0.06308170937029096,0.09991611357978798,0.7929664410756171,0.5976970934316876,0.01939578354358673,-0.2338677644729614,-0.9720749258995056,604745214.0651097,0,-9.23,99.09539
2020-03-01 09:46:54.258 +0100,17689.769535125,0.0257415771484375,-0.2329864501953125,-0.9736480712890625,17689.764511125,1.847825001120908,0.02125211480821396,0.2350704961573984,-0.0291171595454216,0.08615367859601974,0.005344698205590248,-0.01593810133635998,0.02068725228309631,-0.005919873714447021,XArbitraryZVertical,0.06225126593476152,0.0999280821546821,0.7931666254447707,0.5975163952185812,0.02066608145833015,-0.232911542057991,-0.9722782969474792,604745214.0651097,0,-9.23,99.09539
2020-03-01 09:46:54.278 +0100,17689.789631125,0.0345306396484375,-0.226409912109375,-0.9880218505859375,17689.784607125,1.848346066351967,0.02268240388880108,0.2350348757647492,0.02180790156126022,0.0663258284330368,0.04231413453817368,0.01076237298548222,-0.003410503268241882,-0.005804836750030518,XArbitraryZVertical,0.06164720065247257,0.1003573235087799,0.7933681267921383,0.5972396008963596,0.02205688692629337,-0.2328768968582153,-0.972256064414978,604745214.0651097,0,-9.23,99.09539
2020-03-01 09:46:54.298 +0100,17689.809726125,0.0554656982421875,-0.235321044921875,-0.985870361328125,17689.804702125,1.8494226973929,0.02307547921755369,0.2359560985356292,0.05750306695699692,-0.008030646480619907,0.08535125106573105,0.02810057625174522,0.0005829185247421265,-0.01927310228347778,XArbitraryZVertical,0.06171305584347579,0.100872610671143,0.7936615878947517,0.5967559437566817,0.02243409678339958,-0.2337726950645447,-0.9720324277877808,604745214.0651097,0,-9.23,99.09539
2020-03-01 09:46:54.319 +0100,17689.829822125,0.0276031494140625,-0.253509521484375,-0.9920501708984375,17689.824798125,1.851791044700633,0.02180273391980508,0.237024260751586,0.0253473948687315,-0.05497949570417404,0.1255413144826889,0.02101203426718712,-0.001659169793128967,-0.01365149021148682,XArbitraryZVertical,0.06241839579329365,0.1009898441870239,0.7942814513972007,0.5958372427504618,0.02119147218763828,-0.2348111271858215,-0.971809983253479,604745214.0651097,0,-9.23,99.09539
2020-03-01 09:46:54.339 +0100,17689.849917125,0.048614501953125,-0.28118896484375,-0.996826171875,17689.844893125,1.854277934553727,0.01992169962503069,0.2362617105928789,-0.1148142367601395,-0.0797559842467308,0.08118923008441925,0.0105839129537344,-0.04311099648475647,-0.02231514453887939,XArbitraryZVertical,0.0628129160837218,0.1002053008540035,0.7949965271649104,0.5949739623264138,0.01936698891222477,-0.23406982421875,-0.9720268845558167,604745214.0651097,0,-9.23,99.09539
2020-03-01 09:46:54.359 +0100,17689.870013125,0.07476806640625,-0.25244140625,-1.029769897460938,17689.864989125,1.856620100003705,0.01567552253489321,0.2319911391736259,-0.2922650575637817,-0.2721168994903564,0.180705726146698,0.0505392886698246,-0.05294176936149597,-0.05012059211730957,XArbitraryZVertical,0.06311250102676536,0.09732076000072848,0.7957475412749927,0.5944168226558518,0.01525495853275061,-0.2299157828092575,-0.9730909466743469,604745214.0651097,0,-9.23,99.09539
2020-03-01 09:46:54.379 +0100,17689.890108125,0.2875518798828125,-0.1096038818359375,-0.8363494873046875,17689.885084125,1.862282666914745,0.01162592309325238,0.2301819056309155,0.9543135762214661,1.118370532989502,0.4787042438983917,0.06900200992822647,0.01734890043735504,-0.06390410661697388,XArbitraryZVertical,0.06391434605574298,0.09557929429679056,0.7973789914060849,0.5924240586365359,0.01131903287023306,-0.2281546294689178,-0.9735590815544128,604745214.0651097,0,-9.23,99.09539
2020-03-01 09:46:54.399 +0100,17689.910203125,0.2310028076171875,-0.24114990234375,-0.9386444091796875,17689.905180125,1.863676911862982,0.02419474083968877,0.2491314878778708,0.2049240469932556,-0.1906862854957581,-0.1854568421840668,0.4006242454051971,0.3266673684120178,0.01028275489807129,XArbitraryZVertical,0.0644532512850724,0.1068837441241661,0.7973360309437815,0.5904887009138264,0.0234454870223999,-0.2465623468160629,-0.9688432812690735,604745214.0651097,0,-9.23,99.09539
2020-03-01 09:46:54.419 +0100,17689.930299125,0.1892852783203125,-0.3560638427734375,-0.995880126953125,17689.925275125,1.86260066897527,0.02990691175938289,0.2481849257496761,-0.259888082742691,0.4849971830844879,0.04225547611713409,0.04496996104717255,-0.1813912689685822,0.05684417486190796,XArbitraryZVertical,0.06195320307837546,0.108160059368351,0.7972420514721679,0.5906507317174485,0.0289862398058176,-0.2456449121236801,-0.9689264297485352,604745214.0651097,0,-9.23,99.09539
2020-03-01 09:46:54.454 +0100,17689.950394125,0.2690277099609375,-0.161376953125,-1.0177001953125,17689.945370125,1.865629185109312,0.03368226331883493,0.244197302824917,-0.04380358010530472,0.2911696135997772,0.226566955447197,0.22296541929245,0.00138641893863678,-0.05695533752441406,XArbitraryZVertical,0.05910099599006488,0.1077794015808168,0.798427536590547,0.589409999559784,0.03267678990960121,-0.2417775243520737,-0.9697813391685486,604745214.0651097,0,-9.23,99.09539
2020-03-01 09:46:54.459 +0100,17689.970490125,0.289520263671875,-0.1441192626953125,-1.075790405273438,17689.965466125,1.868705228896602,0.03865845089851693,0.2495893355709906,0.5494036674499512,0.2522259950637817,0.09751617163419724,0.2565968036651611,0.1164482533931732,-0.1054897308349609,XArbitraryZVertical,0.05854117972080761,0.111480748450176,0.7992410874632813,0.5876722302198214,0.03745124861598015,-0.2470060437917709,-0.9682899713516235,604745214.0651097,0,-9.23,99.09539
2020-03-01 09:46:54.479 +0100,17689.990585125,0.27783203125,-0.235626220703125,-1.015228271484375,17689.985561125,1.871255887592524,0.04329035615901296,0.2627702084695863,0.6607096195220947,0.258731871843338,0.2181779593229294,0.2384623289108276,0.07161355018615723,-0.08810615539550781,XArbitraryZVertical,0.06043797716433411,0.1181632675355781,0.7995294519176012,0.5857793560363876,0.04179131984710693,-0.2597566545009613,-0.9647693634033203,604745214.0651097,0,-9.23,99.09539
2020-03-01 09:46:54.499 +0100,17690.01068041667,0.2921295166015625,-0.268646240234375,-0.9345855712890625,17690.00565641667,1.876518526602369,0.0468780827247362,0.2733547129745303,0.3229284584522247,0.2427453696727753,0.3344971239566803,0.237772062420845,0.007846415042877197,-0.01028293371200562,XArbitraryZVertical,0.0618029341576395,0.123587842988036,0.8006770701733839,0.5829431997202605,0.04512099921703339,-0.2699631154537201,-0.9618129134178162,604745214.0651097,0,-9.23,99.09539
2020-03-01 09:46:54.519 +0100,17690.03077541667,0.3175506591796875,-0.2597808837890625,-0.9127349853515625,17690.02575141667,1.884971852286102,0.04949721922840651,0.27639310036301,-0.02888270653784275,0.2514341771602631,0.4947297871112823,0.2561829090118408,0.004713296890258789,0.04251325130462646,XArbitraryZVertical,0.06111663371619893,0.125820889851634,0.8030669276982114,0.5792386843258998,0.04759915918111801,-0.2728874385356903,-0.960867702960968,604745214.0651097,0,-9.23,99.09539
2020-03-01 09:46:54.539 +0100,17690.05087141667,0.36102294921875,-0.2156524658203125,-0.930419921875,17690.04584741667,1.897256472298005,0.05150346992987798,0.2747934002143758,-0.1515967398881912,0.2735102772712708,0.6741886138916016,0.2879393398761749,0.03263840079307556,0.04153835773468018,XArbitraryZVertical,0.05906961989871763,0.1261279763092408,0.806747125749014,0.5742489092618021,0.04954921454191208,-0.2713480889797211,-0.961205005645752,604745214.0651097,0,-9.23,99.09539
2020-03-01 09:46:54.560 +0100,17690.07096641667,0.4004669189453125,-0.1493377685546875,-0.9331817626953125,17690.06594241667,1.913360792257346,0.0528153127374103,0.2722781362975825,-0.1890922635793686,0.2867238819599152,0.8561433553695679,0.3308776319026947,0.0921977162361145,0.02150595188140869,XArbitraryZVertical,0.05679853889073322,0.125956625564593,0.811503868300946,0.5677766328866674,0.05084598809480667,-0.2689263522624969,-0.9618176817893982,604745214.0651097,0,-9.23,99.09539
2020-03-01 09:46:54.580 +0100,17690.09106241667,0.4178619384765625,-0.118621826171875,-0.880889892578125,17690.08603841667,1.93366609914608,0.0532273627823323,0.2683843317727673,-0.3229891955852509,0.2849327325820923,1.077098608016968,0.3622252941131592,0.1304827928543091,0.04835653305053711,XArbitraryZVertical,0.05424753641446479,0.1250587042690076,0.8174245346043948,0.5596737931146013,0.0512976236641407,-0.2651739418506622,-0.9628350734710693,604745214.0651097,0,-9.23,99.09539
2020-03-01 09:46:54.600 +0100,17690.11115741667,0.419525146484375,-0.089813232421875,-0.83941650390625,17690.10613341667,1.959071217005525,0.0525324486498694,0.2606753242973621,-0.5875934362411499,0.2984048128128052,1.322160840034485,0.3675188422203064,0.1535587012767792,0.110280454158783,XArbitraryZVertical,0.05080098399876572,0.122383171107637,0.8248152824326652,0.5496556933829833,0.05073435604572296,-0.2577331066131592,-0.9648832678794861,604745214.0651097,0,-9.23,99.09539
2020-03-01 09:46:54.620 +0100,17690.13125241667,0.4319305419921875,-0.0478668212890625,-0.84033203125,17690.12622941667,1.989771872308986,0.05090428902082704,0.2475951010589128,-0.8439483046531677,0.3043502271175385,1.556490302085876,0.3752703964710236,0.173398494720459,0.1303547024726868,XArbitraryZVertical,0.04604513305985491,0.1172836916742888,0.8337200641331296,0.5376200743678294,0.04933063313364983,-0.2450731098651886,-0.9682487845420837,604745214.0651097,0,-9.23,99.09539
2020-03-01 09:46:54.640 +0100,17690.15134841667,0.4471435546875,0.014556884765625,-0.83941650390625,17690.14632441667,2.025006782899958,0.04892504605683966,0.230430827018526,-1.023059487342834,0.3373622000217438,1.764975905418396,0.3919877409934998,0.2178167551755905,0.1330904364585876,XArbitraryZVertical,0.04027241455870634,0.1103474946894392,0.8437749177732065,0.5236846126637026,0.04761286452412605,-0.2283969819545746,-0.9724031090736389,604745214.0651097,0,-9.23,99.09539
2020-03-01 09:46:54.660 +0100,17690.17144341667,0.45904541015625,0.0254058837890625,-0.8735504150390625,17690.16642041667,2.065007957996812,0.04756303402308715,0.2107806977729235,-1.102171421051025,0.3960956037044525,2.026548147201538,0.4063067436218262,0.2340872585773468,0.1215501427650452,XArbitraryZVertical,0.03361205914176145,0.1024169493861879,0.8548626133549826,0.5075342252369313,0.04649282991886139,-0.2092233896255493,-0.9767619967460632,604745214.0651097,0,-9.23,99.09539
2020-03-01 09:46:54.680 +0100,17690.19153941667,0.457550048828125,0.04461669921875,-0.8880462646484375,17690.18651541667,2.110632312949148,0.04682103217554936,0.1911847818782156,-1.034033298492432,0.440619170665741,2.323275089263916,0.4139437973499298,0.2213232815265656,0.099384605884552,XArbitraryZVertical,0.02676427853347334,0.09450792261915597,0.8669479577334187,0.4886237066640586,0.04595115035772324,-0.1900222301483154,-0.9807038307189941,604745214.0651097,0,-9.23,99.09539
2020-03-01 09:46:54.700 +0100,17690.21163441667,0.4468536376953125,0.06744384765625,-0.91448974609375,17690.20661041667,2.161768871504007,0.04712804173270475,0.1740157576974477,-0.9095484614372253,0.5216530561447144,2.598190784454346,0.4050882160663605,0.2298896610736847,0.08653956651687622,XArbitraryZVertical,0.02016669335033191,0.08770043390362342,0.8797559114295118,0.4668314545058456,0.04639910534024239,-0.1731388419866562,-0.9838038682937622,604745214.0651097,0,-9.23,99.09539
2020-03-01 09:46:54.720 +0100,17690.23173041667,0.4187774658203125,0.0652618408203125,-0.90948486328125,17690.22670641667,2.218297962231201,0.04936576462980549,0.1587436248905549,-0.9117883443832397,0.642137885093689,2.863982200622559,0.3866637647151947,0.2308334559202194,0.07008457183837891,XArbitraryZVertical,0.01327894618252347,0.08192556464111181,0.8931009915727179,0.4421340074931787,0.04872527718544006,-0.158077746629715,-0.9862237572669983,604745214.0651097,0,-9.23,99.09539
2020-03-01 09:46:54.740 +0100,17690.25182541667,0.3724212646484375,0.0407257080078125,-0.91278076171875,17690.24680141667,2.280263392155162,0.05426808020595511,0.142571273011635,-1.001474738121033,0.7645925879478455,3.150080442428589,0.3451220989227295,0.1908253580331802,0.07364630699157715,XArbitraryZVertical,0.00513306669404652,0.07599538410566367,0.9068537538910491,0.41450537848657,0.05369110777974129,-0.142088770866394,-0.9883967041969299,604745214.0651097,0,-9.23,99.09539
2020-03-01 09:46:54.761 +0100,17690.27192141667,0.3094635009765625,0.0567474365234375,-0.930755615234375,17690.26689741667,2.348132565516412,0.06176854565028589,0.1266321761469557,-0.9607661366462708,0.8863864541053772,3.424741268157959,0.2821879684925079,0.1703444570302963,0.07191759347915649,XArbitraryZVertical,-0.00398626170070749,0.07023946468786921,0.9207973083756502,0.3836441655425384,0.06123499944806099,-0.1262940019369125,-0.9901010394096375,604745214.0651097,0,-9.23,99.09539
2020-03-01 09:46:54.781 +0100,17690.29201641667,0.2797698974609375,0.0616912841796875,-1.016983032226562,17690.28699241667,2.420656922507802,0.07234234137011117,0.1119818599361983,-0.9606443047523499,1.032170534133911,3.632740259170532,0.2120097130537033,0.1742294579744339,0.02359187602996826,XArbitraryZVertical,-0.014060659795431,0.06506611359969582,0.9343682443470613,0.3500353141242348,0.07182653993368149,-0.1117479652166367,-0.9911373853683472,604745214.0651097,0,-9.23,99.09539
2020-03-01 09:46:54.801 +0100,17690.31211241667,0.331146240234375,0.1082000732421875,-1.120346069335938,17690.30708841667,2.497990598898643,0.08612569551319105,0.09918677606080482,-0.9224481582641602,1.132396221160889,3.896379232406616,0.2144279032945633,0.1745505928993225,-0.08650034666061401,XArbitraryZVertical,-0.02512525815767489,0.06058352330071319,0.9472975775329013,0.3135694587857376,0.0855964794754982,-0.0990242213010788,-0.9913967251777649,604745214.0651097,0,-9.23,99.09539
2020-03-01 09:46:54.821 +0100,17690.33220741667,0.344329833984375,0.1856689453125,-1.09356689453125,17690.32718341667,2.580191068130556,0.1014699777637948,0.08781122538684759,-0.9980194568634033,1.151238799095154,4.097131729125977,0.2484029531478882,0.2352755665779114,-0.1317651867866516,XArbitraryZVertical,-0.03653784789849598,0.05615489291173411,0.9593170299675606,0.2742672562368586,0.1009056568145752,-0.08769842237234116,-0.9910232424736023,604745214.0651097,0,-9.23,99.09539
2020-03-01 09:46:54.841 +0100,17690.35230341667,0.27008056640625,0.2541656494140625,-1.007110595703125,17690.34727941667,2.66644529918099,0.1176190343941583,0.07452325843053126,-1.278669595718384,1.165473580360413,4.249758243560791,0.1945037692785263,0.2945398092269897,-0.0530472993850708,XArbitraryZVertical,-0.04833291665057238,0.04996700288540152,0.9700734562241352,0.2326471328179027,0.1170223206281662,-0.07445430010557175,-0.9903344511985779,604745214.0651097,0,-9.23,99.09539
2020-03-01 09:46:54.861 +0100,17690.37239841667,0.2022857666015625,0.339202880859375,-1.0311279296875,17690.36737441667,2.755413561747923,0.1353658991772439,0.0559915432083707,-1.652978301048279,1.18339216709137,4.248425960540771,0.09884089231491089,0.3552236557006836,-0.02229857444763184,XArbitraryZVertical,-0.06098925558494268,0.04038182311186589,0.9791486128918012,0.189519614819248,0.1347413808107376,-0.05596229061484337,-0.9892992377281189,604745214.0651097,0,-9.23,99.09539
2020-03-01 09:46:54.881 +0100,17690.39249441667,0.1773834228515625,0.4480743408203125,-1.041473388671875,17690.38747041667,2.843825173945123,0.1559957562672443,0.03297194011744788,-1.904936194419861,1.248037219047546,4.110983371734619,0.02669544517993927,0.421473503112793,-0.04319852590560913,XArbitraryZVertical,-0.07460845618091982,0.02780974957811578,0.9859872295630263,0.1465929654266721,0.1552793979644775,-0.03296596556901932,-0.9873203635215759,604745214.0651097,0,-9.23,99.09539
2020-03-01 09:46:54.901 +0100,17690.41258941667,0.165283203125,0.5349578857421875,-1.018936157226562,17690.40756541667,2.930695667640134,0.179151058927285,0.003605598637227773,-2.483752250671387,1.222626686096191,3.919932842254639,-0.002843067049980164,0.5056964159011841,-0.04907858371734619,XArbitraryZVertical,-0.08876976598904121,0.01120108820626444,0.9904739127333315,0.1046706628834457,0.1781931221485138,-0.003605590900406241,-0.9839889407157898,604745214.0651097,0,-9.23,99.09539
2020-03-01 09:46:54.921 +0100,17690.43268441667,0.1068267822265625,0.593017578125,-0.946563720703125,17690.42766141667,3.017026870977794,0.2045766646738026,-0.03719837331511831,-3.12769889831543,1.153077125549316,3.739096641540527,-0.06001338362693787,0.5292887091636658,-0.000261843204498291,XArbitraryZVertical,-0.1030459820396944,-0.01211053167897007,0.992554398252109,0.06380196490717116,0.2030121386051178,0.0371897965669632,-0.9784697294235229,604745214.0651097,0,-9.23,99.09539
2020-03-01 09:46:54.953 +0100,17690.45278041667,-0.0268707275390625,0.5959014892578125,-0.9412994384765625,17690.44775641667,3.102744281760963,0.2317848872487618,-0.08666020631099766,-3.448155403137207,1.031391143798828,3.476629972457886,-0.1838489323854446,0.5136586427688599,0.03722929954528809,XArbitraryZVertical,-0.1163385524497611,-0.04077402796915754,0.9920752300717997,0.02428245405913254,0.2288530021905899,0.08655177801847458,-0.9696056246757507,604745214.0651097,0,-9.23,99.09539
2020-03-01 09:46:54.962 +0100,17690.47287541667,-0.1373138427734375,0.59796142578125,-0.990509033203125,17690.46785141667,-3.099234838232181,0.2622592344304798,-0.137258497607723,-3.332456827163696,1.139137983322144,3.071733713150024,-0.3547680974006653,0.4444409012794495,0.00922393798828125,XArbitraryZVertical,-0.1289773094555587,-0.07073391248972934,0.9890490597134891,-0.01198158481379757,0.256824791431427,0.1368279159069061,-0.956723153591156,604745214.0651097,0,-9.23,99.09539
2020-03-01 09:46:54.982 +0100,17690.49297141667,-0.065643310546875,0.7474517822265625,-1.064971923828125,17690.48794741667,-3.026707418059636,0.2981232200909237,-0.1817918655684142,-2.845322132110596,1.27036190032959,2.543201208114624,-0.4074631929397583,0.4846240878105164,-0.1087579727172852,XArbitraryZVertical,-0.1424997355182416,-0.09810712113794645,0.9839780597904154,-0.04308186490799815,0.2888864874839783,0.1807921975851059,-0.9401376247406006,604745214.0651097,0,-9.23,99.09539
2020-03-01 09:46:55.002 +0100,17690.51306641667,0.0204620361328125,0.7702178955078125,-1.039031982421875,17690.50804241667,-2.964913739470791,0.3359595847498251,-0.2171424407702232,-2.428008556365967,1.259742736816406,2.133958578109741,-0.3278886377811432,0.5825256109237671,-0.1330767869949341,XArbitraryZVertical,-0.1561330920161482,-0.1210797712381447,0.9778958280831727,-0.06842481283728402,0.3219335079193115,0.2154400497674942,-0.9219242930412292,604745214.0651097,0,-9.23,99.09539
2020-03-01 09:46:55.022 +0100,17690.53316241667,-0.0965118408203125,0.5294342041015625,-0.904510498046875,17690.52813841667,-2.908301300071391,0.3735613721254157,-0.2477451605213346,-2.467489004135132,1.202627182006836,1.956602454185486,-0.3691950142383575,0.4099215865135193,-0.07831466197967529,XArbitraryZVertical,-0.1688919270752155,-0.1420280415730951,0.9711222487963562,-0.0906928844722612,0.3537912964820862,0.2452185899019241,-0.9026070833206177,604745214.0651097,0,-9.23,99.09539
2020-03-01 09:46:55.042 +0100,17690.55325741667,-0.2322845458984375,0.5871124267578125,-0.7850341796875,17690.54823341667,-2.851691382103155,0.4119685628631651,-0.2880133215325785,-3.38561224937439,1.115056753158569,1.474047422409058,-0.5616814494132996,0.2441044449806213,0.04828578233718872,XArbitraryZVertical,-0.1800001024889077,-0.1682398566395248,0.9628086556385366,-0.1108822724758795,0.3839209377765656,0.284047931432724,-0.8785906434059143,604745214.0651097,0,-9.23,99.09539
2020-03-01 09:46:55.062 +0100,17690.57335341667,-0.435821533203125,0.6064453125,-0.704071044921875,17690.56832941667,-2.793959693957441,0.4516157815141263,-0.3448778289232459,-3.96068286895752,1.100182890892029,1.149254202842712,-0.7091671228408813,0.2775893211364746,0.08774417638778687,XArbitraryZVertical,-0.1883285302882735,-0.2028563212906792,0.9523355051801171,-0.1282143810976341,0.4107220768928528,0.3380816876888275,-0.8467633724212646,604745214.0651097,0,-9.23,99.09539
2020-03-01 09:46:55.082 +0100,17690.59344841667,-0.5388946533203125,0.436004638671875,-0.6516876220703125,17690.58842441667,-2.729967386985625,0.5016018345883302,-0.4259965609970087,-6.175596237182617,1.33038330078125,0.3004129528999329,-0.9862598180770874,0.11773282289505,0.07299530506134033,XArbitraryZVertical,-0.1956030499694981,-0.2500285327846206,0.9375615183506795,-0.1421393458573919,0.4378575682640076,0.4132284820079803,-0.7984503507614136,604745214.0651097,0,-9.23,99.09539
2020-03-01 09:46:55.102 +0100,17690.61354441667,-0.2438812255859375,0.8223114013671875,-0.625396728515625,17690.60852041667,-2.644519032437058,0.5648781716119636,-0.5464276515631367,-7.4630446434021,0.9997725486755371,0.2499541640281677,-0.8481909036636353,0.01672828197479248,0.06995832920074463,XArbitraryZVertical,-0.1963718057546681,-0.3171872847906113,0.9148405311007786,-0.1545873205497893,0.4573640525341034,0.5196383595466614,-0.7216606736183167,604745214.0651097,0,-9.23,99.09539
2020-03-01 09:46:55.122 +0100,17690.63363941667,-0.0945587158203125,1.450027465820312,-0.3494415283203125,17690.62861541667,-2.546258882022131,0.6396834068042614,-0.6589512163006847,-5.907052040100098,0.9287397861480713,-0.1038318276405334,-0.6279431581497192,0.581325888633728,0.1284459829330444,XArbitraryZVertical,-0.194340522740764,-0.3808866063691644,0.8885602683289132,-0.1661862010385581,0.4719627201557159,0.6122879981994629,-0.6343142986297607,604745214.0651097,0,-9.23,99.09539
2020-03-01 09:46:55.142 +0100,17690.65373541667,-0.0064697265625,1.609268188476562,-0.1894683837890625,17690.64871141667,-2.483811115185571,0.7024104980959671,-0.7311599858426832,-2.581186294555664,1.4268559217453,-0.5548549294471741,-0.5298526287078857,0.93439781665802,0.3438252210617065,XArbitraryZVertical,-0.1956550483630825,-0.4214540523358886,0.8696320406159045,-0.1668403594888045,0.480926901102066,0.6677335500717163,-0.5681911706924438,604745214.0651097,0,-9.23,99.09539
2020-03-01 09:46:55.162 +0100,17690.67383041667,0.1083831787109375,1.218917846679688,-0.13140869140625,17690.66880641667,-2.483848882484308,0.7376398892007564,-0.7546648780624533,0.6510509252548218,1.997825384140015,-0.9369019865989685,-0.4396014511585236,0.8046889305114746,0.3555812835693359,XArbitraryZVertical,-0.2061957215216926,-0.4334937063712022,0.8635633454080249,-0.154353300094127,0.4899485111236572,0.6850445866584778,-0.5391330718994141,604745214.0651097,0,-9.23,99.09539
2020-03-01 09:46:55.182 +0100,17690.69392541667,0.476104736328125,0.3658294677734375,-1.017837524414062,17690.68890241667,-2.521413487377239,0.7527963426026922,-0.750044319533928,1.310084223747253,1.971837639808655,-1.035887002944946,-0.2787639498710632,0.02646172046661377,-0.04868084192276001,XArbitraryZVertical,-0.2217665954629615,-0.4287710861133631,0.8651717958928015,-0.1358412740428842,0.5002220273017883,0.6816712021827698,-0.5339498519897461,604745214.0651097,0,-9.23,99.09539
2020-03-01 09:46:55.203 +0100,17690.71402141667,0.913421630859375,0.389373779296875,-1.188629150390625,17690.70899741667,-2.569652066679854,0.7492745260488481,-0.7502073599323106,1.139759540557861,0.91434645652771,-1.164229989051819,0.2797446250915527,-0.3631840348243713,-0.5715246200561523,XArbitraryZVertical,-0.2304832233653158,-0.4231596561183378,0.8685845547715705,-0.1156470607997574,0.4982626736164093,0.6817904710769653,-0.5356267690658569,604745214.0651097,0,-9.23,99.09539
2020-03-01 09:46:55.223 +0100,17690.73411641667,0.6329498291015625,0.7212371826171875,-1.2264404296875,17690.72909241667,-2.61249728113255,0.7284581509072605,-0.744083449378507,1.245415806770325,0.1303733885288239,-0.7785577774047852,0.3506863713264465,-0.02546930313110352,-0.6696432828903198,XArbitraryZVertical,-0.2314986231175014,-0.4146260025823992,0.8740503233917378,-0.1026144392170883,0.4897761344909668,0.6772977709770203,-0.5489873290061951,604745214.0651097,0,-9.23,99.09539
2020-03-01 09:46:55.243 +0100,17690.75421241667,0.9700775146484375,0.07659912109375,-1.172576904296875,17690.74918841667,-2.637225329565932,0.7115514722344723,-0.7321873409794799,0.8579190373420715,-0.1931781619787216,0.1546739339828491,0.2041454017162323,-0.3244840502738953,-0.6471376419067383,XArbitraryZVertical,-0.2312213263473006,-0.406092239309997,0.8786867199246394,-0.09765043583935706,0.4856523871421814,0.6684979796409607,-0.5632515549659729,604745214.0651097,0,-9.23,99.09539
2020-03-01 09:46:55.263 +0100,17690.77430741667,1.040130615234375,0.772918701171875,-0.82171630859375,17690.76928341667,-2.650318207671361,0.6944244592552913,-0.7259416566381539,0.0804048478603363,-0.7149701118469238,-0.8939685225486755,0.6390270590782166,-0.4120801091194153,-0.447868824005127,XArbitraryZVertical,-0.2273710112444094,-0.401199046681246,0.8820516951886778,-0.09657480130040552,0.4785974025726318,0.6638399958610535,-0.5746834874153137,604745214.0651097,0,-9.23,99.09539
2020-03-01 09:46:55.283 +0100,17690.79440341667,0.6317596435546875,0.90447998046875,-0.5736541748046875,17690.78937941667,-2.668080325583009,0.6672391270562993,-0.739354168368768,0.1508289128541946,-0.6496225595474243,-0.4690108895301819,0.3770684599876404,0.3184415698051453,-0.08794665336608887,XArbitraryZVertical,-0.2167512604075205,-0.4034874909731319,0.8842063000592995,-0.09162926726994547,0.45724818110466,0.6738108396530151,-0.5804334878921509,604745214.0651097,0,-9.23,99.09539
2020-03-01 09:46:55.303 +0100,17690.81449841667,0.4844970703125,0.619964599609375,-0.420013427734375,17690.80947441667,-2.683218474379033,0.6474217977084878,-0.7322304910509581,0.8332993388175964,-0.3404237627983093,-0.2435727119445801,0.04639136791229248,0.08776092529296875,0.1162521243095398,XArbitraryZVertical,-0.2121331083359184,-0.3979981097804765,0.88795159092381,-0.09021701099617807,0.4485402703285217,0.6685301065444946,-0.5931941270828247,604745214.0651097,0,-9.23,99.09539
2020-03-01 09:46:55.323 +0100,17690.83459441667,0.4196929931640625,0.6443634033203125,-0.476318359375,17690.82957041667,-2.700501437164362,0.6293329464375759,-0.7271258982251499,0.3182612061500549,-0.3290567696094513,-0.4016311168670654,0.05285769701004028,-0.09385859966278076,0.1688599586486816,XArbitraryZVertical,-0.2082889686486062,-0.3932367372118442,0.8912948701751634,-0.0870295651310336,0.4397402107715607,0.6647251844406128,-0.603961169719696,604745214.0651097,0,-9.23,99.09539
2020-03-01 09:46:55.343 +0100,17690.85468941667,0.2374725341796875,0.781219482421875,-0.6063995361328125,17690.84966541667,-2.710853051602639,0.6162038277426456,-0.7283388319336215,0.08591638505458832,-0.2876629531383514,-0.3158009946346283,-0.1160761117935181,0.07926201820373535,0.07779276371002197,XArbitraryZVertical,-0.2042838280880399,-0.3921175701748927,0.8929305631413986,-0.084775849087801,0.4313067495822906,0.6656308770179749,-0.6090238690376282,604745214.0651097,0,-9.23,99.09539
2020-03-01 09:46:55.363 +0100,17690.87478541667,0.2811737060546875,0.7148590087890625,-0.645904541015625,17690.86976141667,-2.718975706521459,0.6054476631159205,-0.7320353153155296,-0.05012170225381851,-0.2408466637134552,-0.3949059844017029,-0.2031738758087158,0.08010894060134888,-0.04299753904342651,XArbitraryZVertical,-0.2005296131331774,-0.3924125710974068,0.8938539723439076,-0.08261660922337011,0.4233279824256897,0.6683849096298218,-0.6116005182266235,604745214.0651097,0,-9.23,99.09539
2020-03-01 09:46:55.383 +0100,17690.89488041667,0.431884765625,0.6900482177734375,-0.583404541015625,17690.88985641667,-2.725626512082207,0.5960252484856436,-0.7383112597832,-0.1608069539070129,-0.2592872381210327,-0.3140770792961121,-0.03864136338233948,0.03282022476196289,0.004706263542175293,XArbitraryZVertical,-0.1967168381266669,-0.3940345845279294,0.8941874682955671,-0.0804244980649032,0.4151835441589355,0.6730398535728455,-0.6120784878730774,604745214.0651097,0,-9.23,99.09539
2020-03-01 09:46:55.404 +0100,17690.91497641667,0.4469757080078125,0.5757904052734375,-0.6331329345703125,17690.90995241667,-2.727422082938058,0.5890988820549934,-0.744259408084862,-0.2420606911182404,-0.3134764730930328,-0.1514305025339127,0.03125590085983276,-0.04268866777420044,0.009019255638122559,XArbitraryZVertical,-0.1931208701188055,-0.3961114548919648,0.8940931030899538,-0.07998569835138819,0.4087025821208954,0.6774272322654724,-0.6116001009941101,604745214.0651097,0,-9.23,99.09539
2020-03-01 09:46:55.424 +0100,17690.93507141667,0.46112060546875,0.58343505859375,-0.6515655517578125,17690.93004741667,-2.728209150952252,0.5811091288774309,-0.7500766766772067,-0.1765439361333847,-0.4355692863464355,-0.234146848320961,0.05666738748550415,-0.1261498928070068,-0.04838168621063232,XArbitraryZVertical,-0.1888731989141608,-0.3981910073532666,0.8940533325204514,-0.08024731113595951,0.4016329348087311,0.6816948652267456,-0.6115416884422302,604745214.0651097,0,-9.23,99.09539
2020-03-01 09:46:55.461 +0100,17690.95516641667,0.38653564453125,0.6915435791015625,-0.6037750244140625,17690.95014341667,-2.732663864509684,0.5682060606381182,-0.7554476523740244,-0.1227162554860115,-0.5377571582794189,-0.3058129549026489,0.04102498292922974,-0.04379725456237793,-0.01446986198425293,XArbitraryZVertical,-0.1832289506764734,-0.3995475058621135,0.8946496976898886,-0.07994232922258593,0.3917329609394073,0.6856145858764648,-0.6135779023170471,604745214.0651097,0,-9.23,99.09539
2020-03-01 09:46:55.464 +0100,17690.97526241667,0.3372650146484375,0.733917236328125,-0.5472259521484375,17690.97023841667,-2.737524257531634,0.5538567161547009,-0.7614268165146109,-0.2058296799659729,-0.5450486540794373,-0.2942948937416077,-0.03250008821487427,0.03511399030685425,0.02030539512634277,XArbitraryZVertical,-0.1769420237097965,-0.4010891278153581,0.8952493485469808,-0.07967188541629133,0.3807255029678345,0.689954936504364,-0.6156380772590637,604745214.0651097,0,-9.23,99.09539
2020-03-01 09:46:55.488 +0100,17690.99535741667,0.2901763916015625,0.6465606689453125,-0.487945556640625,17690.99033441667,-2.738786933171096,0.5425172966927768,-0.7686779814365046,-0.4151303768157959,-0.4764793217182159,-0.1685906201601028,-0.05141955614089966,0.005484163761138916,0.1211580634117126,XArbitraryZVertical,-0.1711127349591126,-0.4036248635827628,0.8951926448191744,-0.08023505367666012,0.3711274564266205,0.6951855421066284,-0.6156148314476013,604745214.0651097,0,-9.23,99.09539
2020-03-01 09:46:55.505 +0100,17691.01545416667,0.360809326171875,0.604949951171875,-0.569610595703125,17691.01043016667,-2.733609329046634,0.5372964809130754,-0.7833047438805139,-1.028745174407959,-0.4482402801513672,-0.2605061829090118,-0.06140393018722534,-0.09792816638946533,0.09400629997253418,XArbitraryZVertical,-0.1656889973745981,-0.4100924304341681,0.8931745260372479,-0.08130673453928638,0.3626649379730225,0.7056249380111694,-0.6087427139282227,604745214.0651097,0,-9.23,99.09539
2020-03-01 09:46:55.524 +0100,17691.03554916667,0.42352294921875,0.7749481201171875,-0.6891326904296875,17691.03052516667,-2.722875373970624,0.5348700960759684,-0.8050746565126404,-1.080471873283386,-0.561011016368866,-0.2157564014196396,0.05100235342979431,-0.04377502202987671,-0.03995144367218018,XArbitraryZVertical,-0.1593023030945337,-0.4201095168355068,0.8895029437921833,-0.08315924223313775,0.3532717227935791,0.7208824157714844,-0.5962615609169006,604745214.0651097,0,-9.23,99.09539
2020-03-01 09:46:55.544 +0100,17691.05564516667,0.4046173095703125,0.8388824462890625,-0.6746063232421875,17691.05062116667,-2.71621592847736,0.5277948984624754,-0.8206936436680664,-0.4729583859443665,-0.5979476571083069,-0.1694308072328568,0.08148223161697388,0.09830409288406372,-0.1064870357513428,XArbitraryZVertical,-0.1525069664453062,-0.4269292635372296,0.8872556012168246,-0.0851498432551257,0.3433312475681305,0.7316188812255859,-0.5889460444450378,604745214.0651097,0,-9.23,99.09539
2020-03-01 09:46:55.565 +0100,17691.07574016667,0.34674072265625,0.7127685546875,-0.501434326171875,17691.07071616667,-2.71450383217639,0.5177913001354058,-0.8292575389907203,-0.442302018404007,-0.5259074568748474,-0.1500242054462433,0.03429198265075684,0.06629312038421631,0.01787114143371582,XArbitraryZVertical,-0.1464688809320746,-0.430237374326552,0.8865235351574281,-0.08671131062682053,0.3343091011047363,0.7374300956726074,-0.5868853330612183,604745214.0651097,0,-9.23,99.09539
2020-03-01 09:46:55.585 +0100,17691.09583616667,0.3587646484375,0.74407958984375,-0.574920654296875,17691.09081216667,-2.709948066238163,0.5109706530437639,-0.8399021984146614,-0.5062936544418335,-0.5017707347869873,0.008107060566544533,0.03799515962600708,-0.02435165643692017,0.05244135856628418,XArbitraryZVertical,-0.1409243512901999,-0.4347465222054987,0.8850394326736546,-0.0885503215859173,0.3264411091804504,0.7445778250694275,-0.5822715759277344,604745214.0651097,0,-9.23,99.09539
2020-03-01 09:46:55.605 +0100,17691.11593116667,0.270263671875,0.949066162109375,-0.644622802734375,17691.11090716667,-2.704730722868784,0.5052148632544671,-0.8465901192282457,-0.3040886521339417,-0.4507968425750732,-0.08302364498376846,-0.01439657807350159,0.1749199628829956,-0.08041626214981079,XArbitraryZVertical,-0.1362687728503283,-0.4376594074672159,0.8840755907477864,-0.09107890199706115,0.3206668794155121,0.7490255832672119,-0.5797701478004456,604745214.0651097,0,-9.23,99.09539
2020-03-01 09:46:55.625 +0100,17691.13602716667,0.2462005615234375,0.8215179443359375,-0.6241912841796875,17691.13100316667,-2.704026739041141,0.4980075931286098,-0.8502910996605827,-0.1294260621070862,-0.3241843283176422,-0.0728452131152153,-0.07847815752029419,0.1228665113449097,-0.05925834178924561,XArbitraryZVertical,-0.1323900841621933,-0.4389299113045522,0.8838978662544723,-0.09240091527091315,0.3151536881923676,0.7514724731445312,-0.5796267986297607,604745214.0651097,0,-9.23,99.09539
2020-03-01 09:46:55.645 +0100,17691.15612216667,0.26092529296875,0.7217559814453125,-0.6463470458984375,17691.15109816667,-2.703810807547166,0.4919971258608321,-0.8532923087904781,-0.1520766764879227,-0.3069409728050232,-0.06160670518875122,-0.05028539896011353,-0.009389519691467285,-0.05023998022079468,XArbitraryZVertical,-0.1292505953712052,-0.4399252141382677,0.8837670308330637,-0.0933597352116029,0.3105974197387695,0.7534492015838623,-0.5795201659202576,604745214.0651097,0,-9.23,99.09539
2020-03-01 09:46:55.665 +0100,17691.17621816667,0.220062255859375,0.710296630859375,-0.637969970703125,17691.17119416667,-2.702992291084016,0.4862587814425441,-0.8565131662932481,-0.1323555409908295,-0.3117231726646423,-0.02895535156130791,-0.06522774696350098,-0.04476761817932129,-0.06746125221252441,XArbitraryZVertical,-0.1260681130473945,-0.4410607404464492,0.8835397792064495,-0.09449811796061303,0.3061312139034271,0.7555630207061768,-0.5791445374488831,604745214.0651097,0,-9.23,99.09539
2020-03-01 09:46:55.685 +0100,17691.19631316667,0.224639892578125,0.7624664306640625,-0.636932373046875,17691.19128916667,-2.701647007163687,0.4819105481924491,-0.8582943487730134,-0.0715058222413063,-0.2256879508495331,0.002793721854686737,-0.08464986085891724,-0.0134931206703186,-0.06023377180099487,XArbitraryZVertical,-0.1235924884876042,-0.4416860303991028,0.8834386711923161,-0.09578417571307879,0.3029858469963074,0.7567286491394043,-0.5792766809463501,604745214.0651097,0,-9.23,99.09539
2020-03-01 09:46:55.705 +0100,17691.21640916667,0.1993408203125,0.7265625,-0.6710052490234375,17691.21138516667,-2.701841308440633,0.477231968358177,-0.859488683847639,-0.03379716724157333,-0.2350971102714539,-0.06415288895368576,-0.07723289728164673,-0.02353554964065552,-0.07865345478057861,XArbitraryZVertical,-0.1213959943113294,-0.4419509770527202,0.883527008441007,-0.09655338041326433,0.2998569905757904,0.7575088739395142,-0.5798847079277039,604745214.0651097,0,-9.23,99.09539
2020-03-01 09:46:55.725 +0100,17691.23650416667,0.148223876953125,0.790283203125,-0.655487060546875,17691.23148016667,-2.703728342016445,0.4712594983830519,-0.8609759295051915,-0.02906701527535915,-0.1874407082796097,-0.07159608602523804,-0.1306097507476807,0.002181828022003174,-0.08657491207122803,XArbitraryZVertical,-0.1189603533416025,-0.4421742971696238,0.8837173449264641,-0.09681905047077916,0.2958764433860779,0.7584789395332336,-0.5806606411933899,604745214.0651097,0,-9.23,99.09539
2020-03-01 09:46:55.745 +0100,17691.25660016667,0.21783447265625,0.7532196044921875,-0.602874755859375,17691.25157616667,-2.703980328602891,0.4688636302127133,-0.8609040530666652,0.01597698591649532,-0.02061344683170319,0.07491421699523926,-0.1347048878669739,0.01515293121337891,-0.04874002933502197,XArbitraryZVertical,-0.1179676063912573,-0.4420128649885926,0.8838841203035481,-0.09724794016133043,0.294509083032608,0.7584320902824402,-0.5814165472984314,604745214.0651097,0,-9.23,99.09539
2020-03-01 09:46:55.766 +0100,17691.27669516667,0.335479736328125,0.7608795166015625,-0.542205810546875,17691.27167116667,-2.700394345815781,0.472615136334131,-0.8597141389837587,-0.01061176601797342,0.1380454301834106,0.1801627725362778,-0.009044647216796875,0.01739394664764404,0.01348459720611572,XArbitraryZVertical,-0.1190040271540953,-0.4419080089359719,0.8836946229085061,-0.09817918643871448,0.2970987856388092,0.7576560378074646,-0.5811107158660889,604745214.0651097,0,-9.23,99.09539
2020-03-01 09:46:55.786 +0100,17691.29679016667,0.4386749267578125,0.7389678955078125,-0.5519866943359375,17691.29176716667,-2.694331694678763,0.4814790862908968,-0.8593905173286568,-0.1827008426189423,0.2603929042816162,0.1517859697341919,0.08894279599189758,-0.0140112042427063,0.02674663066864014,XArbitraryZVertical,-0.1216252511499877,-0.4425736091914297,0.8829189369372344,-0.09894519447487637,0.3023515343666077,0.7574447989463806,-0.5786718130111694,604745214.0651097,0,-9.23,99.09539
2020-03-01 09:46:55.805 +0100,17691.31688616667,0.414154052734375,0.76031494140625,-0.524078369140625,17691.31186216667,-2.688398411397771,0.4913746650236597,-0.8639575574544412,-0.3771135807037354,0.2867323756217957,-0.01518697664141655,0.1379517912864685,-0.01922845840454102,0.03046584129333496,XArbitraryZVertical,-0.1239991471017907,-0.4453385732109905,0.8812273752490576,-0.09867166163293967,0.3064274787902832,0.7604186534881592,-0.5725955367088318,604745214.0651097,0,-9.23,99.09539
2020-03-01 09:46:55.826 +0100,17691.33698116667,0.3555450439453125,0.7924652099609375,-0.549652099609375,17691.33195816667,-2.684730302927969,0.5004611780985421,-0.8712866429111608,-0.375862717628479,0.3452619612216949,-0.1082123517990112,0.06565019488334656,0.01904624700546265,0.02967965602874756,XArbitraryZVertical,-0.1260826350981425,-0.4490677297729142,0.8792091192370566,-0.0971224969851669,0.3089351654052734,0.76515793800354,-0.5648826956748962,604745214.0651097,0,-9.23,99.09539
2020-03-01 09:46:55.846 +0100,17691.35707716667,0.333160400390625,0.759033203125,-0.5354156494140625,17691.35205316667,-2.682096555369359,0.5097353521345868,-0.8790864457641825,-0.3703674077987671,0.365205854177475,-0.09912551939487457,0.03150099515914917,0.002480983734130859,0.01590192317962646,XArbitraryZVertical,-0.1283820249295245,-0.4529179164777456,0.8771346273242068,-0.09496458144564607,0.3112389743328094,0.7701565027236938,-0.5567668080329895,604745214.0651097,0,-9.23,99.09539
2020-03-01 09:46:55.867 +0100,17691.37717216667,0.329864501953125,0.781890869140625,-0.5107879638671875,17691.37214816667,-2.678671757584757,0.5195363003070897,-0.885549081480029,-0.300159752368927,0.3447742462158203,-0.04052269458770752,0.01881667971611023,-0.005592763423919678,0.021736741065979,XArbitraryZVertical,-0.1309094807936825,-0.456271625596871,0.8752093066037141,-0.09320848264709014,0.3142031729221344,0.7742626070976257,-0.5493578314781189,604745214.0651097,0,-9.23,99.09539
2020-03-01 09:46:55.886 +0100,17691.39726816667,0.330963134765625,0.8040008544921875,-0.5090789794921875,17691.39224416667,-2.675566640293373,0.5284923219940054,-0.8898879053847691,-0.1799349635839462,0.2993654310703278,-0.01508997101336718,0.01388156414031982,0.01748603582382202,0.03364813327789307,XArbitraryZVertical,-0.1334447572384127,-0.4586771527721971,0.8737148210685359,-0.09181651076554426,0.3174135982990265,0.7770012021064758,-0.5436155200004578,604745214.0651097,0,-9.23,99.09539
2020-03-01 09:46:55.906 +0100,17691.41736316667,0.341552734375,0.7933349609375,-0.49798583984375,17691.41233916667,-2.672967788032749,0.5364732242069913,-0.892232219668876,-0.1105736866593361,0.2899592220783234,0.03497645631432533,0.007722824811935425,0.02673923969268799,0.04721498489379883,XArbitraryZVertical,-0.1359665791632153,-0.4601783833610544,0.8726490436791992,-0.09073426796334333,0.3208101093769073,0.7784748077392578,-0.5394979119300842,604745214.0651097,0,-9.23,99.09539
2020-03-01 09:46:55.926 +0100,17691.43745916667,0.387847900390625,0.78509521484375,-0.5194244384765625,17691.43243516667,-2.670654527964342,0.5438855444501075,-0.8931578293816643,-0.0340084508061409,0.2543157935142517,0.0404161661863327,0.04068067669868469,0.01973450183868408,0.03967326879501343,XArbitraryZVertical,-0.1385210749165171,-0.4610506895312336,0.8718746377469626,-0.08988293033839273,0.3244271874427795,0.7790554165840149,-0.5364883542060852,604745214.0651097,0,-9.23,99.09539
2020-03-01 09:46:55.960 +0100,17691.45755416667,0.377349853515625,0.7131805419921875,-0.5194244384765625,17691.45253016667,-2.669597505531368,0.5492552200188633,-0.8926682627270823,0.009381173178553581,0.2086075842380524,0.06339238584041595,0.05075836181640625,-0.02166032791137695,0.03653979301452637,XArbitraryZVertical,-0.1406951411677536,-0.4611647936587635,0.8715375619475083,-0.08918738656662067,0.3275023698806763,0.7787483930587769,-0.5350638031959534,604745214.0651097,0,-9.23,99.09539
2020-03-01 09:46:55.966 +0100,17691.47765016667,0.413787841796875,0.7099609375,-0.523834228515625,17691.47262616667,-2.667727559935535,0.554189834193371,-0.8928775762197946,-0.1184953898191452,0.1182479038834572,-0.000961601734161377,0.07729083299636841,-0.09785687923431396,-0.0006374120712280273,XArbitraryZVertical,-0.1423803304535079,-0.4616021997485556,0.8710687812342582,-0.08882835908505732,0.3300528526306152,0.778879702091217,-0.5333024859428406,604745214.0651097,0,-9.23,99.09539
2020-03-01 09:46:55.987 +0100,17691.49774516667,0.3479461669921875,0.79034423828125,-0.5259857177734375,17691.49272116667,-2.665617652764822,0.5573442852045044,-0.8953042670187644,-0.1111148446798325,0.05268195644021034,-0.004793057683855295,0.04732924699783325,-0.02138888835906982,0.01773965358734131,XArbitraryZVertical,-0.1428786046961318,-0.4628813397291281,0.8703306257537045,-0.08860753633682078,0.3307327926158905,0.7803993821144104,-0.5306531190872192,604745214.0651097,0,-9.23,99.09539
2020-03-01 09:46:56.006 +0100,17691.51784116667,0.3310546875,0.777587890625,-0.5610198974609375,17691.51281716667,-2.664605965259198,0.5590804030328415,-0.8966224139826241,-0.04248400405049324,0.02568839117884636,-0.02486597001552582,7.933378219604492e-05,-0.005717694759368896,-0.005985856056213379,XArbitraryZVertical,-0.1431884339991328,-0.4635669010982982,0.869933601751124,-0.08842174883533116,0.3311076462268829,0.7812228798866272,-0.5292056202888489,604745214.0651097,0,-9.23,99.09539
2020-03-01 09:46:56.027 +0100,17691.53793616667,0.277191162109375,0.8467559814453125,-0.5636444091796875,17691.53291216667,-2.665150847959677,0.5588132325267223,-0.8985807662804262,-0.09228170663118362,-0.0005579637363553047,-0.1093911379575729,-0.01889526844024658,0.0237618088722229,-0.04531228542327881,XArbitraryZVertical,-0.1428845654992422,-0.4643125060787778,0.8696373163782343,-0.08791380723420034,0.3301544487476349,0.7824439406394958,-0.5279958248138428,604745214.0651097,0,-9.23,99.09539
2020-03-01 09:46:56.047 +0100,17691.55803216667,0.279510498046875,0.90081787109375,-0.5474700927734375,17691.55300816667,-2.667528662845504,0.5572254952759587,-0.8994645509287947,0.1533210873603821,0.003858029842376709,-0.0376700796186924,-0.06502336263656616,0.1050447821617126,-0.004558444023132324,XArbitraryZVertical,-0.1426047583992189,-0.4644326910044991,0.8697011790447967,-0.08709864002748885,0.3289499580860138,0.7829939723014832,-0.527932345867157,604745214.0651097,0,-9.23,99.09539
2020-03-01 09:46:56.067 +0100,17691.57812716667,0.295135498046875,0.8289642333984375,-0.5412139892578125,17691.57310316667,-2.678022682896715,0.5480924009614815,-0.8915916702177274,0.8158599138259888,-0.06218443065881729,-0.108508437871933,-0.04953491687774658,0.1109431385993958,-0.03134936094284058,XArbitraryZVertical,-0.1422982044304472,-0.4600776687018336,0.8721756725071678,-0.08596215654959011,0.3273166120052338,0.7780725955963135,-0.5361595153808594,604745214.0651097,0,-9.23,99.09539
2020-03-01 09:46:56.088 +0100,17691.59822216667,0.34759521484375,0.7052154541015625,-0.557098388671875,17691.59319916667,-2.694735354450027,0.5331695478119779,-0.8759449845828229,0.9755865335464478,-0.1540900319814682,-0.0383141003549099,0.006385356187820435,-0.02286994457244873,-0.002296090126037598,XArbitraryZVertical,-0.141991979947199,-0.4518155455266954,0.8766640489446514,-0.08462449589110105,0.3254278600215912,0.7681488990783691,-0.5514019727706909,604745214.0651097,0,-9.23,99.09539
2020-03-01 09:46:56.107 +0100,17691.61831816667,0.3278656005859375,0.6953887939453125,-0.5895233154296875,17691.61329416667,-2.708993980177171,0.5181881710229472,-0.8610773171894129,0.7328842878341675,-0.2417402118444443,-0.01585276611149311,0.02784475684165955,-0.07883203029632568,-0.009441852569580078,XArbitraryZVertical,-0.1408159778811654,-0.4439971902480757,0.8808902001567172,-0.08408329385448543,0.3227523267269135,0.7585449814796448,-0.5660747289657593,604745214.0651097,0,-9.23,99.09539
2020-03-01 09:46:56.127 +0100,17691.63841316667,0.287139892578125,0.8047943115234375,-0.5950469970703125,17691.63339016667,-2.71914422269759,0.5052872562011655,-0.850938235678473,0.5152178406715393,-0.2829172611236572,-0.08840896189212799,-0.009730547666549683,-0.008434295654296875,-0.03472590446472168,XArbitraryZVertical,-0.1388303223137291,-0.4384977909864714,0.8839603766732881,-0.08402361414837056,0.3191293478012085,0.7518993020057678,-0.5768916606903076,604745214.0651097,0,-9.23,99.09539
2020-03-01 09:46:56.147 +0100,17691.65850916667,0.252349853515625,0.7905426025390625,-0.604217529296875,17691.65348516667,-2.729837581173596,0.4919789611121388,-0.842637282630852,0.6044655442237854,-0.2265847772359848,-0.1232143118977547,-0.05198967456817627,0.06684309244155884,-0.005577802658081055,XArbitraryZVertical,-0.136441608653832,-0.4337042473365956,0.8867473534058529,-0.08344731032512581,0.3143613636493683,0.7464008331298828,-0.5865686535835266,604745214.0651097,0,-9.23,99.09539
2020-03-01 09:46:56.173 +0100,17691.67860416667,0.26806640625,0.716033935546875,-0.621124267578125,17691.67358116667,-2.743158627688536,0.4784248652431136,-0.8309119516943159,0.8200736045837402,-0.1397158652544022,-0.09324968606233597,-0.05415225028991699,0.01178628206253052,-0.03032338619232178,XArbitraryZVertical,-0.1348941071019423,-0.4272606192921404,0.890224489444475,-0.08217265953789454,0.3103903532028198,0.7385464906692505,-0.5985038876533508,604745214.0651097,0,-9.23,99.09539
2020-03-01 09:46:56.188 +0100,17691.69870016667,0.255157470703125,0.6862945556640625,-0.6280670166015625,17691.69367616667,-2.756388128172174,0.4660201782837876,-0.8178416538837587,0.7197272181510925,-0.1123935058712959,-0.1114929690957069,-0.04959642887115479,-0.02058243751525879,-0.01057589054107666,XArbitraryZVertical,-0.133898540425078,-0.4202751194361871,0.8938211724707036,-0.0807698933430977,0.3072538673877716,0.7296716570854187,-0.6108800172805786,604745214.0651097,0,-9.23,99.09539
2020-03-01 09:46:56.207 +0100,17691.71879516667,0.2756500244140625,0.7321319580078125,-0.6837921142578125,17691.71377116667,-2.767646181115932,0.4559576685447782,-0.8048818924399411,0.7448587417602539,-0.07660855352878571,-0.05128289386630058,-0.03127574920654297,-0.0378119945526123,-0.06410825252532959,XArbitraryZVertical,-0.1334071822010282,-0.4135370354888507,0.8971334411512588,-0.07963226093889797,0.3052298724651337,0.7207487821578979,-0.6223793029785156,604745214.0651097,0,-9.23,99.09539
2020-03-01 09:46:56.227 +0100,17691.73889116667,0.263916015625,0.6939697265625,-0.6827850341796875,17691.73386716667,-2.776411246994056,0.4483561415359658,-0.7952414349732825,0.4068926274776459,-0.04532027244567871,-0.02526697516441345,-0.0420612096786499,-0.0004554986953735352,-0.03070080280303955,XArbitraryZVertical,-0.1330025081738619,-0.4084768386656985,0.8996019568915923,-0.07857171170211785,0.3034880757331848,0.7140326499938965,-0.630914032459259,604745214.0651097,0,-9.23,99.09539
